2,35,331,,30,38,335,,41,74,167,,1*68
$GPGSV,4,4,14,40,57,243,,45,68,133,36,,,,,,,,,1*69
$GPGST,100121.00,2.000,6.817,2.243,65.730,3.469,6.283,9.461*63
$BIN 99 [316 Bytes Non-ASCII]
$BIN 89 [92 Bytes Non-ASCII]
$BIN 69 [312 Bytes Non-ASCII]
$BIN 39 [424 Bytes Non-ASCII]
$BIN 39 [424 Bytes Non-ASCII]
$BIN 39 [424 Bytes Non-ASCII]
$BIN 209 [344 Bytes Non-ASCII]
$BIN 209 [344 Bytes Non-ASCII]
$BIN 209 [344 Bytes Non-ASCII]
$BIN 209 [344 Bytes Non-ASCII]
$PSAT,RTKSTAT,AUT,NONE,0,0140,0,(,L1,G1,B1,E1B,QL1,)(,1,2,6,0,2,)(,C,D,D,D,D,),43,0,7.177,02F,0*7A
$HEHDT,,T*01
$HEROT,,V*12
$PSAT,HPR,100121.10,,,,*70
$GPHEV,0.75,*50
$BIN 1 [64 Bytes Non-ASCII]
$HEHDT,,T*01
$HEROT,,V*12
$PSAT,HPR,100121.20,,,,*73
$GPHEV,0.73,*56
$BIN 1 [64 Bytes Non-ASCII]
$HEHDT,,T*01
$HEROT,,V*12
$PSAT,HPR,100121.30,,,,*72
$GPHEV,0.65,*51
$BIN 1 [64 Bytes Non-ASCII]
$HEHDT,,T*01
$HEROT,,V*12
$PSAT,HPR,100121.40,,,,*75
$GPHEV,0.59,*5E
$BIN 1 [64 Bytes Non-ASCII]
$HEHDT,,T*01
$HEROT,,V*12
$PSAT,HPR,100121.50,,,,*74
$GPHEV,0.51,*56
$BIN 1 [64 Bytes Non-ASCII]
$HEHDT,,T*01
$HEROT,,V*12
$PSAT,HPR,100121.60,,,,*77
$GPHEV,0.49,*5F
$BIN 1 [64 Bytes Non-ASCII]
$HEHDT,,T*01
$HEROT,,V*12
$PSAT,HPR,100121.70,,,,*76
$GPHEV,0.46,*50
$BIN 1 [64 Bytes Non-ASCII]
$HEHDT,,T*01
$HEROT,,V*12
$PSAT,HPR,100121.80,,,,*79
$GPHEV,0.51,*56
$BIN 1 [64 Bytes Non-ASCII]
$RD1,381700,2345,1575.4200,1,30-0,0,0.0,0,1F,7,128,122122
$HEHDT,,T*01
$HEROT,,V*12
$PSAT,HPR,100121.90,,,,*78
$GPHEV,0.58,*5F
$BIN 1 [64 Bytes Non-ASCII]
$HEHDT,,T*01
$HEROT,,V*12
$PSAT,HPR,100122.00,,,,*72
$GPGGA,100122.00,1258.5150644,N,08012.2089997,E,1,11,3.4,-0.564,M,-86.163,M,,*60
$GNGNS,100122.00,1258.5150644,N,08012.2089997,E,AAAAA,11,3.4,-0.564,-86.163,,,C*7A
$GPGNS,100122.00,,,,,,1,,,,,,C*3D
$GLGNS,100122.00,,,,,,1,,,,,,C*21
$GAGNS,100122.00,,,,,,1,,,,,,C*2C
$GBGNS,100122.00,,,,,,6,,,,,,C*28
$GQGNS,100122.00,,,,,,2,,,,,,C*3F
$GPVTG,212.67,T,213.89,M,0.25,N,0.47,K,A*26
$GPZDA,100122.00,19,12,2024,00,00*69
$GPHEV,0.59,*5E
$BIN 1 [64 Bytes Non-ASCII]
$BIN 3 [128 Bytes Non-ASCII]
$GPGSA,M,3,07,,,,,,,,,,,,5.2,3.4,4.0,1*20
$GPGSV,4,1,14,02,02,042,,07,62,082,42,08,13,034,,09,07,159,,1*63
$GPGSV,4,2,14,13,13,315,,14,36,337,,17,74,329,,19,46,231,,1*60
$GPGSV,4,3,14,21,03,043,32,22,35,331,,30,38,335,,41,74,167,,1*6C
$GPGSV,4,4,14,40,57,243,,45,68,133,32,,,,,,,,,1*6D
$GPGST,100122.00,2.000,6.305,2.213,67.174,3.185,5.874,7.973*6F
$BIN 99 [316 Bytes Non-ASCII]
$BIN 89 [92 Bytes Non-ASCII]
$BIN 69 [312 Bytes Non-ASCII]
$BIN 39 [424 Bytes Non-ASCII]
$BIN 39 [424 Bytes Non-ASCII]
$BIN 39 [424 Bytes Non-ASCII]
$BIN 209 [344 Bytes Non-ASCII]
$BIN 209 [344 Bytes Non-ASCII]
$BIN 209 [344 Bytes Non-ASCII]
$BIN 209 [344 Bytes Non-ASCII]
$PSAT,RTKSTAT,AUT,NONE,0,0140,0,(,L1,G1,B1,E1B,QL1,)(,1,1,6,1,2,)(,D,D,D,D,D,),43,0,6.702,02F,0*7A
$HEHDT,,T*01
$HEROT,,V*12
$PSAT,HPR,100122.10,,,,*73
$GPHEV,0.63,*57
$BIN 1 [64 Bytes Non-ASCII]
$HEHDT,,T*01
$HEROT,,V*12
$PSAT,HPR,100122.20,,,,*70
$GPHEV,0.66,*52
$BIN 1 [64 Bytes Non-ASCII]
$HEHDT,,T*01
$HEROT,,V*12
$PSAT,HPR,100122.30,,,,*71
$GPHEV,0.68,*5C
$BIN 1 [64 Bytes Non-ASCII]
$HEHDT,,T*01
$HEROT,,V*12
$PSAT,HPR,100122.40,,,,*76
$GPHEV,0.69,*5D
$BIN 1 [64 Bytes Non-ASCII]
$HEHDT,,T*01
$HEROT,,V*12
$PSAT,HPR,100122.50,,,,*77
$GPHEV,0.70,*55
$BIN 1 [64 Bytes Non-ASCII]
$HEHDT,,T*01
$HEROT,,V*12
$PSAT,HPR,100122.60,,,,*74
$GPHEV,0.70,*55
$BIN 1 [64 Bytes Non-ASCII]
$HEHDT,,T*01
$HEROT,,V*12
$PSAT,HPR,100122.70,,,,*75
$GPHEV,0.71,*54
$BIN 1 [64 Bytes Non-ASCII]
$HEHDT,,T*01
$HEROT,,V*12
$PSAT,HPR,100122.80,,,,*7A
$GPHEV,0.72,*57
$BIN 1 [64 Bytes Non-ASCII]
$RD1,381701,2345,1575.4200,1,30-0,0,0.0,0,1F,7,128,111111
$HEHDT,,T*01
$HEROT,,V*12
$PSAT,HPR,100122.90,,,,*7B
$GPHEV,0.72,*57
$BIN 1 [64 Bytes Non-ASCII]
$HEHDT,,T*01
$HEROT,,V*12
$PSAT,HPR,100123.00,,,,*73
$GPGGA,100123.00,1258.5150726,N,08012.2090430,E,1,11,3.4,-0.392,M,-86.163,M,,*63
$GPVTG,123.65,T,124.87,M,0.15,N,0.27,K,A*29
$GPZDA,100123.00,19,12,2024,00,00*68
$GPHEV,0.70,*55
$BIN 1 [64 Bytes Non-ASCII]
$BIN 3 [128 Bytes Non-ASCII]
$GPGSA,M,3,07,,,,,,,,,,,,5.2,3.4,4.0,1*20
$GPGSV,4,1,14,02,02,042,,07,62,082,44,08,13,034,,09,07,159,,1*65
$GPGSV,4,2,14,13,13,315,,14,36,337,,17,74,329,,19,46,231,,1*60
$GPGSV,4,3,14,21,03,043,37,22,35,331,,30,38,335,,41,74,167,,1*69
$GPGSV,4,4,14,40,57,243,,45,68,133,,,,,,,,,,1*6C
$GPGST,100123.00,2.000,6.306,2.271,67.137,3.222,5.877,7.982*6D
$BIN 99 [316 Bytes Non-ASCII]
$BIN 89 [92 Bytes Non-ASCII]
$BIN 69 [312 Bytes Non-ASCII]
$BIN 39 [424 Bytes Non-ASCII]
$BIN 39 [424 Bytes Non-ASCII]
$BIN 89 [92 Bytes Non-ASCII]
$BIN 69 [312 Bytes Non-ASCII]
$BIN 39 [424 Bytes Non-ASCII]
$BIN 39 [424 Bytes Non-ASCII]
$BIN 39 [424 Bytes Non-ASCII]
$BIN 209 [344 Bytes Non-ASCII]
$BIN 209 [344 Bytes Non-ASCII]
$BIN 209 [344 Bytes Non-ASCII]
$BIN 209 [344 Bytes Non-ASCII]
$PSAT,RTKSTAT,AUT,NONE,0,0140,0,(,L1,G1,B1,E1B,QL1,)(,1,1,5,1,2,)(,B,D,D,D,D,),46,0,7.244,02F,0*7C
$HEHDT,,T*01
$HEROT,,V*12
$PSAT,HPR,100129.10,,,,*78
$GPHEV,-0.72,*7A
$BIN 1 [64 Bytes Non-ASCII]
$HEHDT,,T*01
$HEROT,,V*12
$PSAT,HPR,100129.20,,,,*7B
$GPHEV,-0.71,*79
$BIN 1 [64 Bytes Non-ASCII]
$HEHDT,,T*01
$HEROT,,V*12
$PSAT,HPR,100129.30,,,,*7A
$GPHEV,-0.72,*7A
$BIN 1 [64 Bytes Non-ASCII]
$HEHDT,,T*01
$HEROT,,V*12
$PSAT,HPR,100129.40,,,,*7D
$GPHEV,-0.72,*7A
$BIN 1 [64 Bytes Non-ASCII]
$HEHDT,,T*01
$HEROT,,V*12
$PSAT,HPR,100129.50,,,,*7C
$GPHEV,-0.73,*7B
$BIN 1 [64 Bytes Non-ASCII]
$HEHDT,,T*01
$HEROT,,V*12
$PSAT,HPR,100129.60,,,,*7F
$GPHEV,-0.73,*7B
$BIN 1 [64 Bytes Non-ASCII]
$HEHDT,,T*01
$HEROT,,V*12
$PSAT,HPR,100129.70,,,,*7E
$GPHEV,-0.75,*7D
$BIN 1 [64 Bytes Non-ASCII]
$HEHDT,,T*01
$HEROT,,V*12
$PSAT,HPR,100129.80,,,,*71
$GPHEV,-0.76,*7E
$BIN 1 [64 Bytes Non-ASCII]
$RD1,381708,2345,1575.4200,1,42-0,0,0.0,0,1F,7,128,112112
$HEHDT,,T*01
$HEROT,,V*12
$PSAT,HPR,100129.90,,,,*70
$GPHEV,-0.76,*7E
$BIN 1 [64 Bytes Non-ASCII]
$HEHDT,,T*01
$HEROT,,V*12
$PSAT,HPR,100130.00,,,,*71
$GPGGA,100130.00,1258.5146607,N,08012.2094402,E,1,10,3.6,-2.046,M,-86.163,M,,*6A
$GNGNS,100130.00,1258.5146607,N,08012.2094402,E,AAAAA,10,3.6,-2.046,-86.163,,,C*70
$GPGNS,100130.00,,,,,,1,,,,,,C*3E
$GLGNS,100130.00,,,,,,1,,,,,,C*22
$GAGNS,100130.00,,,,,,1,,,,,,C*2F
$GBGNS,100130.00,,,,,,5,,,,,,C*28
$GQGNS,100130.00,,,,,,2,,,,,,C*3C
$GPVTG,294.87,T,296.09,M,0.16,N,0.30,K,A*23
$GPZDA,100130.00,19,12,2024,00,00*6A
$GPHEV,-0.78,*70
$BIN 1 [64 Bytes Non-ASCII]
$BIN 3 [128 Bytes Non-ASCII]
$GPGSA,M,3,07,,,,,,,,,,,,5.6,3.6,4.3,1*25
$GPGSV,4,1,14,02,02,042,,07,62,082,47,08,13,034,,09,07,159,,1*66
$GPGSV,4,2,14,13,13,315,,14,36,337,,17,74,329,,19,46,231,,1*60
$GPGSV,4,3,14,21,03,043,39,22,35,331,,30,38,335,,41,74,167,39,1*6D
$GPGSV,4,4,14,40,57,243,,45,68,133,39,,,,,,,,,1*66
$GPGST,100130.00,2.000,6.855,2.357,64.555,3.634,6.273,8.641*65
$BIN 99 [316 Bytes Non-ASCII]
$BIN 89 [92 Bytes Non-ASCII]
$BIN 69 [312 Bytes Non-ASCII]
$BIN 39 [424 Bytes Non-ASCII]
$BIN 39 [424 Bytes Non-ASCII]
$BIN 39 [424 Bytes Non-ASCII]
$BIN 209 [344 Bytes Non-ASCII]
$BIN 209 [344 Bytes Non-ASCII]
$BIN 209 [344 Bytes Non-ASCII]
$BIN 209 [344 Bytes Non-ASCII]
$PSAT,RTKSTAT,AUT,NONE,0,0140,0,(,L1,G1,B1,E1B,QL1,)(,1,1,5,1,2,)(,C,D,D,D,D,),49,0,7.249,02F,0*7F
$HEHDT,,T*01
$HEROT,,V*12
$PSAT,HPR,100130.10,,,,*70
$GPHEV,-0.79,*71
$BIN 1 [64 Bytes Non-ASCII]
$HEHDT,,T*01
$HEROT,,V*12
$PSAT,HPR,100130.20,,,,*73
$GPHEV,-0.80,*77
$BIN 1 [64 Bytes Non-ASCII]
$HEHDT,,T*01
$HEROT,,V*12
$PSAT,HPR,100130.30,,,,*72
$GPHEV,-0.80,*77
$BIN 1 [64 Bytes Non-ASCII]
$HEHDT,,T*01
$HEROT,,V*12
$PSAT,HPR,100130.40,,,,*75
$GPHEV,-0.81,*76
$BIN 1 [64 Bytes Non-ASCII]
$HEHDT,,T*01
$HEROT,,V*12
$PSAT,HPR,100130.50,,,,*74
$GPHEV,-0.82,*75
$BIN 1 [64 Bytes Non-ASCII]
$HEHDT,,T*01
$HEROT,,V*12
$PSAT,HPR,100130.60,,,,*77
$GPHEV,-0.82,*75
$BIN 1 [64 Bytes Non-ASCII]
$HEHDT,,T*01
$HEROT,,V*12
$PSAT,HPR,100130.70,,,,*76
$GPHEV,-0.82,*75
$BIN 1 [64 Bytes Non-ASCII]
$HEHDT,,T*01
$HEROT,,V*12
$PSAT,HPR,100130.80,,,,*79
$GPHEV,-0.83,*74
$BIN 1 [64 Bytes Non-ASCII]
$RD1,381709,2345,1575.4200,1,154-4,4,0.0,0,1F,7,128,112112
$HEHDT,,T*01
$HEROT,,V*12
$PSAT,HPR,100130.90,,,,*78
$GPHEV,-0.84,*73
$BIN 1 [64 Bytes Non-ASCII]
$HEHDT,,T*01
$HEROT,,V*12
$PSAT,HPR,100131.00,,,,*70
$GPGGA,100131.00,1258.5146725,N,08012.2094453,E,1,10,3.7,-2.141,M,-86.163,M,,*69
$GPVTG,137.51,T,138.73,M,0.18,N,0.33,K,A*25
$GPZDA,100131.00,19,12,2024,00,00*6B
$GPHEV,-0.83,*74
$BIN 1 [64 Bytes Non-ASCII]
$BIN 3 [128 Bytes Non-ASCII]
$GPGSA,M,3,07,,,,,,,,,,,,5.8,3.7,4.4,1*2D
$GPGSV,4,1,14,02,02,042,,07,62,082,47,08,13,034,,09,07,159,,1*66
$GPGSV,4,2,14,13,13,315,,14,36,337,,17,74,329,,19,46,231,,1*60
$GPGSV,4,3,14,21,03,043,39,22,35,331,,30,38,335,,41,74,167,39,1*6D
$GPGSV,4,4,14,40,57,243,,45,68,133,39,,,,,,,,,1*66
$GPGST,100131.00,2.000,6.906,2.750,62.026,4.049,6.234,8.882*6E
$BIN 99 [316 Bytes Non-ASCII]
$BIN 89 [92 Bytes Non-ASCII]
$BIN 69 [312 Bytes Non-ASCII]
$BIN 39 [424 Bytes Non-ASCII]
$BIN 39 [424 Bytes Non-ASCII]
$BIN 39 [424 Bytes Non-ASCII]
$BIN 209 [344 Bytes Non-ASCII]
$BIN 209 [344 Bytes Non-ASCII]
$BIN 209 [344 Bytes Non-ASCII]
$BIN 209 [344 Bytes Non-ASCII]
$PSAT,RTKSTAT,AUT,NONE,0,0140,0,(,L1,G1,B1,E1B,QL1,)(,1,1,4,2,2,)(,C,D,D,D,D,),52,0,7.433,02F,0*7C
$HEHDT,,T*01
$HEROT,,V*12
$PSAT,HPR,100131.10,,,,*71
$GPHEV,-0.83,*74
$BIN 1 [64 Bytes Non-ASCII]
$HEHDT,,T*01
$HEROT,,V*12
$PSAT,HPR,100131.20,,,,*72
$GPHEV,-0.83,*74
$BIN 1 [64 Bytes Non-ASCII]
$HEHDT,,T*01
$HEROT,,V*12
$PSAT,HPR,100131.30,,,,*73
$GPHEV,-0.81,*76
$BIN 1 [64 Bytes Non-ASCII]
$BIN 209 [344 Bytes Non-ASCII]
$BIN 209 [344 Bytes Non-ASCII]
$PSAT,RTKSTAT,AUT,NONE,0,0140,0,(,L1,G1,B1,E1B,QL1,)(,1,2,6,2,2,)(,C,B,D,D,D,),63,0,6.648,02F,0*76
$HEHDT,,T*01
$HEROT,,V*12
$PSAT,HPR,100137.10,,,,*77
$GPHEV,0.34,*55
$BIN 1 [64 Bytes Non-ASCII]
$HEHDT,,T*01
$HEROT,,V*12
$PSAT,HPR,100137.20,,,,*74
$GPHEV,0.35,*54
$BIN 1 [64 Bytes Non-ASCII]
$HEHDT,,T*01
$HEROT,,V*12
$PSAT,HPR,100137.30,,,,*75
$GPHEV,0.35,*54
$BIN 1 [64 Bytes Non-ASCII]
$HEHDT,,T*01
$HEROT,,V*12
$PSAT,HPR,100137.40,,,,*72
$GPHEV,0.35,*54
$BIN 1 [64 Bytes Non-ASCII]
$HEHDT,,T*01
$HEROT,,V*12
$PSAT,HPR,100137.50,,,,*73
$GPHEV,0.35,*54
$BIN 1 [64 Bytes Non-ASCII]
$HEHDT,,T*01
$HEROT,,V*12
$PSAT,HPR,100137.60,,,,*70
$GPHEV,0.33,*52
$BIN 1 [64 Bytes Non-ASCII]
$HEHDT,,T*01
$HEROT,,V*12
$PSAT,HPR,100137.70,,,,*71
$GPHEV,0.32,*53
$BIN 1 [64 Bytes Non-ASCII]
$HEHDT,,T*01
$HEROT,,V*12
$PSAT,HPR,100137.80,,,,*7E
$GPHEV,0.34,*55
$BIN 1 [64 Bytes Non-ASCII]
$RD1,381716,2345,1575.4200,1,0-0,0,0.0,0,1F,7,128,133133
$HEHDT,,T*01
$HEROT,,V*12
$PSAT,HPR,100137.90,,,,*7F
$GPHEV,0.33,*52
$BIN 1 [64 Bytes Non-ASCII]
$HEHDT,,T*01
$HEROT,,V*12
$PSAT,HPR,100138.00,,,,*79
$GPGGA,100138.00,1258.5152078,N,08012.2090888,E,1,13,3.3,-1.032,M,-86.163,M,,*65
$GNGNS,100138.00,1258.5152078,N,08012.2090888,E,AAAAA,13,3.3,-1.032,-86.163,,,C*7F
$GPGNS,100138.00,,,,,,1,,,,,,C*36
$GLGNS,100138.00,,,,,,2,,,,,,C*29
$GAGNS,100138.00,,,,,,2,,,,,,C*24
$GBGNS,100138.00,,,,,,6,,,,,,C*23
$GQGNS,100138.00,,,,,,2,,,,,,C*34
$GPVTG,325.27,T,326.50,M,0.22,N,0.40,K,A*24
$GPZDA,100138.00,19,12,2024,00,00*62
$GPHEV,0.33,*52
$BIN 1 [64 Bytes Non-ASCII]
$BIN 3 [128 Bytes Non-ASCII]
$GPGSA,M,3,07,,,,,,,,,,,,5.2,3.3,4.0,1*27
$GPGSV,4,1,14,02,02,042,,07,62,082,44,08,13,034,,09,07,159,,1*65
$GPGSV,4,2,14,13,13,315,,14,36,337,,17,74,329,,19,46,231,,1*60
$GPGSV,4,3,14,21,02,043,,22,35,331,,30,38,335,,41,74,167,40,1*68
$GPGSV,4,4,14,40,57,243,,45,68,133,42,,,,,,,,,1*6A
$GPGST,100138.00,2.000,6.270,2.229,66.470,3.231,5.817,7.920*61
$BIN 99 [316 Bytes Non-ASCII]
$BIN 89 [92 Bytes Non-ASCII]
$BIN 69 [312 Bytes Non-ASCII]
$BIN 39 [424 Bytes Non-ASCII]
$BIN 39 [424 Bytes Non-ASCII]
$BIN 39 [424 Bytes Non-ASCII]
$BIN 209 [344 Bytes Non-ASCII]
$BIN 209 [344 Bytes Non-ASCII]
$BIN 209 [344 Bytes Non-ASCII]
$BIN 209 [344 Bytes Non-ASCII]
$PSAT,RTKSTAT,AUT,NONE,0,0140,0,(,L1,G1,B1,E1B,QL1,)(,1,2,6,2,2,)(,D,C,D,D,D,),63,0,6.654,02F,0*7D
$HEHDT,,T*01
$HEROT,,V*12
$PSAT,HPR,100138.10,,,,*78
$GPHEV,0.32,*53
$BIN 1 [64 Bytes Non-ASCII]
$HEHDT,,T*01
$HEROT,,V*12
$PSAT,HPR,100138.20,,,,*7B
$GPHEV,0.33,*52
$BIN 1 [64 Bytes Non-ASCII]
$HEHDT,,T*01
$HEROT,,V*12
$PSAT,HPR,100138.30,,,,*7A
$GPHEV,0.33,*52
$BIN 1 [64 Bytes Non-ASCII]
$HEHDT,,T*01
$HEROT,,V*12
$PSAT,HPR,100138.40,,,,*7D
$GPHEV,0.33,*52
$BIN 1 [64 Bytes Non-ASCII]
$HEHDT,,T*01
$HEROT,,V*12
$PSAT,HPR,100138.50,,,,*7C
$GPHEV,0.33,*52
$BIN 1 [64 Bytes Non-ASCII]
$HEHDT,,T*01
$HEROT,,V*12
$PSAT,HPR,100138.60,,,,*7F
$GPHEV,0.33,*52
$BIN 1 [64 Bytes Non-ASCII]
$HEHDT,,T*01
$HEROT,,V*12
$PSAT,HPR,100138.70,,,,*7E
$GPHEV,0.32,*53
$BIN 1 [64 Bytes Non-ASCII]
$HEHDT,,T*01
$HEROT,,V*12
$PSAT,HPR,100138.80,,,,*71
$GPHEV,0.31,*50
$BIN 1 [64 Bytes Non-ASCII]
$RD1,381717,2345,1575.4200,1,0-0,0,0.0,0,1F,7,128,133133
$HEHDT,,T*01
$HEROT,,V*12
$PSAT,HPR,100138.90,,,,*70
$GPHEV,0.31,*50
$BIN 1 [64 Bytes Non-ASCII]
$HEHDT,,T*01
$HEROT,,V*12
$PSAT,HPR,100139.00,,,,*78
$GPGGA,100139.00,1258.5151928,N,08012.2090880,E,1,14,3.3,-1.025,M,-86.163,M,,*62
$GPVTG,271.44,T,272.67,M,0.11,N,0.21,K,A*22
$GPZDA,100139.00,19,12,2024,00,00*63
$GPHEV,0.32,*53
$BIN 1 [64 Bytes Non-ASCII]
$BIN 3 [128 Bytes Non-ASCII]
$GPGSA,M,3,07,,,,,,,,,,,,5.2,3.3,4.0,1*27
$GPGSV,4,1,14,02,02,042,,07,62,082,43,08,13,034,,09,07,159,,1*62
$GPGSV,4,2,14,13,13,315,,14,36,337,,17,74,329,,19,46,231,,1*60
$GPGSV,4,3,14,21,02,043,,22,35,331,,30,38,335,,41,74,167,38,1*67
$GPGSV,4,4,14,40,57,243,,45,68,133,41,,,,,,,,,1*69
$GPGST,100139.00,2.000,6.266,2.186,66.673,3.191,5.818,7.921*67
$BIN 99 [316 Bytes Non-ASCII]
$BIN 89 [92 Bytes Non-ASCII]
$BIN 69 [312 Bytes Non-ASCII]
$BIN 39 [424 Bytes Non-ASCII]
$BIN 39 [424 Bytes Non-ASCII]
$BIN 39 [424 Bytes Non-ASCII]
$BIN 209 [344 Bytes Non-ASCII]
$BIN 209 [344 Bytes Non-ASCII]
$BIN 209 [344 Bytes Non-ASCII]
$BIN 209 [344 Bytes Non-ASCII]
$PSAT,RTKSTAT,AUT,NONE,0,0140,0,(,L1,G1,B1,E1B,QL1,)(,1,3,6,2,2,)(,D,C,D,D,D,),63,0,6.636,02F,0*78
$HEHDT,,T*01
$HEROT,,V*12
$PSAT,HPR,100139.10,,,,*79
$GPHEV,0.31,*50
$BIN 1 [64 Bytes Non-ASCII]
$HEHDT,,T*01
$HEROT,,V*12
$PSAT,HPR,100139.20,,,,*7A
$GPHEV,0.30,*51
$BIN 1 [64 Bytes Non-ASCII]
$HEHDT,,T*01
$HEROT,,V*12
$PSAT,HPR,100139.30,,,,*7B
$GPHEV,0.31,*50
$BIN 1 [64 Bytes Non-ASCII]
$HEHDT,,T*01
$HEROT,,V*12
$PSAT,HPR,100139.40,,,,*7C
$GPHEV,0.31,*50
$BIN 1 [64 Bytes Non-ASCII]
$HEHDT,,T*01
$HEROT,,V*12
$PSAT,HPR,100139.50,,,,*7D
$GPHEV,0.32,*53
$BIN 1 [64 Bytes Non-ASCII]
$HEHDT,,T*01
$HEROT,,V*12
$PSAT,HPR,100139.60,,,,*7E
$GPHEV,0.31,*50
$BIN 1 [64 Bytes Non-ASCII]
$HEHDT,,T*01
$HEROT,,V*12
$PSAT,HPR,100139.70,,,,*7F
$GPHEV,0.30,*51
$BIN 1 [64 Bytes Non-ASCII]
$HEHDT,,T*01
$HEROT,,V*12
$PSAT,HPR,100139.80,,,,*70
$GPHEV,0.31,*50